[
    {
        "cca2": "DZ",
        "city": "Algiers",
        "iata": "ALG",
        "lat": 36.6910018921,
        "lon": 3.2154099941,
        "region": "Africa"
    },
    {
        "cca2": "AO",
        "city": "Luanda",
        "iata": "LAD",
        "lat": -8.8583698273,
        "lon": 13.2312002182,
        "region": "Africa"
    },
    {
        "cca2": "AR",
        "city": "Buenos Aires",
        "iata": "EZE",
        "lat": -34.8222,
        "lon": -58.5358,
        "region": "South America"
    },
    {
        "cca2": "AR",
        "city": "Córdoba",
        "lat": -31.31,
        "lon": -64.208333,
        "name": "Córdoba, Argentina",
        "region": "South America"
    },
    {
        "cca2": "AR",
        "city": "Neuquen",
        "iata": "NQN",
        "lat": -38.9490013123,
        "lon": -68.1557006836,
        "region": "South America"
    },
    {
        "cca2": "AM",
        "city": "Yerevan",
        "iata": "EVN",
        "lat": 40.1473007202,
        "lon": 44.3959007263,
        "region": "Asia Pacific"
    },
    {
        "cca2": "AU",
        "city": "Adelaide",
        "iata": "ADL",
        "lat": -34.9431729,
        "lon": 138.5335637,
        "region": "Oceania"
    },
    {
        "cca2": "AU",
        "city": "Brisbane",
        "iata": "BNE",
        "lat": -27.3841991425,
        "lon": 153.117004394,
        "region": "Oceania"
    },
    {
        "cca2": "AU",
        "city": "Canberra",
        "iata": "CBR",
        "lat": -35.3069000244,
        "lon": 149.1950073242,
        "region": "Oceania"
    },
    {
        "cca2": "AU",
        "city": "Melbourne",
        "iata": "MEL",
        "lat": -37.6733016968,
        "lon": 144.843002319,
        "region": "Oceania"
    },
    {
        "cca2": "AU",
        "city": "Perth",
        "iata": "PER",
        "lat": -31.9402999878,
        "lon": 115.967002869,
        "region": "Oceania"
    },
    {
        "cca2": "AU",
        "city": "Sydney",
        "iata": "SYD",
        "lat": -33.9460983276,
        "lon": 151.177001953,
        "region": "Oceania"
    },
    {
        "cca2": "AT",
        "city": "Vienna",
        "iata": "VIE",
        "lat": 48.1102981567,
        "lon": 16.5697002411,
        "region": "Europe"
    },
    {
        "cca2": "AZ",
        "city": "Astara",
        "iata": "LLK",
        "lat": 38.7463989258,
        "lon": 48.8180007935,
        "region": "Middle East"
    },
    {
        "cca2": "AZ",
        "city": "Baku",
        "iata": "GYD",
        "lat": 40.4674987793,
        "lon": 50.0466995239,
        "region": "Middle East"
    },
    {
        "cca2": "BH",
        "city": "Manama",
        "iata": "BAH",
        "lat": 26.2707996368,
        "lon": 50.6335983276,
        "region": "Middle East"
    },
    {
        "cca2": "BD",
        "city": "Chittagong",
        "iata": "CGP",
        "lat": 22.2495995,
        "lon": 91.8133011,
        "region": "Asia Pacific"
    },
    {
        "cca2": "BD",
        "city": "Dhaka",
        "iata": "DAC",
        "lat": 23.843347,
        "lon": 90.397783,
        "region": "Asia Pacific"
    },
    {
        "cca2": "BD",
        "city": "Jashore",
        "iata": "JSR",
        "lat": 23.1837997437,
        "lon": 89.1607971191,
        "region": "Asia Pacific"
    },
    {
        "cca2": "BY",
        "city": "Minsk",
        "iata": "MSQ",
        "lat": 53.9006,
        "lon": 27.599,
        "region": "Europe"
    },
    {
        "cca2": "BE",
        "city": "Brussels",
        "iata": "BRU",
        "lat": 50.9014015198,
        "lon": 4.4844398499,
        "region": "Europe"
    },
    {
        "cca2": "BT",
        "city": "Thimphu",
        "iata": "PBH",
        "lat": 27.4712,
        "lon": 89.6339,
        "region": "Asia Pacific"
    },
    {
        "cca2": "BR",
        "city": "Americana",
        "iata": "QWJ",
        "lat": -22.738,
        "lon": -47.334,
        "region": "South America"
    },
    {
        "cca2": "BR",
        "city": "Belém",
        "iata": "BEL",
        "lat": -1.4563,
        "lon": -48.5013,
        "region": "South America"
    },
    {
        "cca2": "BR",
        "city": "Belo Horizonte",
        "iata": "CNF",
        "lat": -19.624444,
        "lon": -43.971944,
        "region": "South America"
    },
    {
        "cca2": "BR",
        "city": "Blumenau",
        "iata": "BNU",
        "lat": -26.89245,
        "lon": -49.07696,
        "region": "South America"
    },
    {
        "cca2": "BR",
        "city": "Brasilia",
        "iata": "BSB",
        "lat": -15.79824,
        "lon": -47.90859,
        "region": "South America"
    },
    {
        "cca2": "BR",
        "city": "Cacador",
        "iata": "CFC",
        "lat": -26.7762,
        "lon": -51.0125,
        "region": "South America"
    },
    {
        "cca2": "BR",
        "city": "Campinas",
        "iata": "VCP",
        "lat": -22.90662,
        "lon": -47.08576,
        "region": "South America"
    },
    {
        "cca2": "BR",
        "city": "Curitiba",
        "iata": "CWB",
        "lat": -25.5284996033,
        "lon": -49.1758003235,
        "region": "South America"
    },
    {
        "cca2": "BR",
        "city": "Florianopolis",
        "iata": "FLN",
        "lat": -27.6702785492,
        "lon": -48.5525016785,
        "region": "South America"
    },
    {
        "cca2": "BR",
        "city": "Fortaleza",
        "iata": "FOR",
        "lat": -3.7762799263,
        "lon": -38.5326004028,
        "region": "South America"
    },
    {
        "cca2": "BR",
        "city": "Goiania",
        "iata": "GYN",
        "lat": -16.69727,
        "lon": -49.26851,
        "region": "South America"
    },
    {
        "cca2": "BR",
        "city": "Itajai",
        "iata": "ITJ",
        "lat": -27.6116676331,
        "lon": -48.6727790833,
        "region": "South America"
    },
    {
        "cca2": "BR",
        "city": "Joinville",
        "iata": "JOI",
        "lat": -26.304408,
        "lon": -48.846383,
        "region": "South America"
    },
    {
        "cca2": "BR",
        "city": "Juazeiro do Norte",
        "iata": "JDO",
        "lat": -7.2242,
        "lon": -39.313,
        "region": "South America"
    },
    {
        "cca2": "BR",
        "city": "Manaus",
        "iata": "MAO",
        "lat": -3.11286,
        "lon": -60.01949,
        "region": "South America"
    },
    {
        "cca2": "BR",
        "city": "Porto Alegre",
        "iata": "POA",
        "lat": -29.9944000244,
        "lon": -51.1713981628,
        "region": "South America"
    },
    {
        "cca2": "BR",
        "city": "Ribeirao Preto",
        "iata": "RAO",
        "lat": -21.1363887787,
        "lon": -47.7766685486,
        "region": "South America"
    },
    {
        "cca2": "BR",
        "city": "Rio de Janeiro",
        "iata": "GIG",
        "lat": -22.8099994659,
        "lon": -43.2505569458,
        "region": "South America"
    },
    {
        "cca2": "BR",
        "city": "Salvador",
        "iata": "SSA",
        "lat": -12.9086112976,
        "lon": -38.3224983215,
        "region": "South America"
    },
    {
        "cca2": "BR",
        "city": "São José do Rio Preto",
        "iata": "SJP",
        "lat": -20.807157,
        "lon": -49.378994,
        "region": "South America"
    },
    {
        "cca2": "BR",
        "city": "São Paulo",
        "iata": "GRU",
        "lat": -23.4355564117,
        "lon": -46.4730567932,
        "region": "South America"
    },
    {
        "cca2": "BR",
        "city": "Sorocaba",
        "iata": "SOD",
        "lat": -23.54389,
        "lon": -46.63445,
        "region": "South America"
    },
    {
        "cca2": "BR",
        "city": "Uberlandia",
        "iata": "UDI",
        "lat": -18.8836116791,
        "lon": -48.225276947,
        "region": "South America"
    },
    {
        "cca2": "BN",
        "city": "Bandar Seri Begawan",
        "iata": "BWN",
        "lat": 4.903052,
        "lon": 114.939819,
        "region": "Asia Pacific"
    },
    {
        "cca2": "BG",
        "city": "Sofia",
        "iata": "SOF",
        "lat": 42.6966934204,
        "lon": 23.4114360809,
        "region": "Europe"
    },
    {
        "cca2": "BF",
        "city": "Ouagadougou",
        "lat": 12.3531999588,
        "lon": -1.5124200583,
        "name": "Ouagadougou, Burkina Faso",
        "region": "Africa"
    },
    {
        "cca2": "KH",
        "city": "Phnom Penh",
        "iata": "PNH",
        "lat": 11.5466003418,
        "lon": 104.84400177,
        "region": "Asia Pacific"
    },
    {
        "cca2": "CA",
        "city": "Calgary",
        "iata": "YYC",
        "lat": 51.113899231,
        "lon": -114.019996643,
        "region": "North America"
    },
    {
        "cca2": "CA",
        "city": "Vancouver",
        "iata": "YVR",
        "lat": 49.193901062,
        "lon": -123.183998108,
        "region": "North America"
    },
    {
        "cca2": "CA",
        "city": "Winnipeg",
        "iata": "YWG",
        "lat": 49.9099998474,
        "lon": -97.2398986816,
        "region": "North America"
    },
    {
        "cca2": "CA",
        "city": "Ottawa",
        "iata": "YOW",
        "lat": 45.3224983215,
        "lon": -75.6691970825,
        "region": "North America"
    },
    {
        "cca2": "CA",
        "city": "Toronto",
        "iata": "YYZ",
        "lat": 43.6772003174,
        "lon": -79.6305999756,
        "region": "North America"
    },
    {
        "cca2": "CA",
        "city": "Montréal",
        "iata": "YUL",
        "lat": 45.4706001282,
        "lon": -73.7407989502,
        "region": "North America"
    },
    {
        "cca2": "CA",
        "city": "Saskatoon",
        "iata": "YXE",
        "lat": 52.1707992554,
        "lon": -106.699996948,
        "region": "North America"
    },
    {
        "cca2": "CL",
        "city": "Arica",
        "iata": "ARI",
        "lat": -18.348611,
        "lon": -70.338889,
        "region": "South America"
    },
    {
        "cca2": "CL",
        "city": "Santiago",
        "iata": "SCL",
        "lat": -33.3930015564,
        "lon": -70.7857971191,
        "region": "South America"
    },
    {
        "cca2": "CO",
        "city": "Bogotá",
        "iata": "BOG",
        "lat": 4.70159,
        "lon": -74.1469,
        "region": "South America"
    },
    {
        "cca2": "CO",
        "city": "Medellín",
        "iata": "MDE",
        "lat": 6.16454,
        "lon": -75.4231,
        "region": "South America"
    },
    {
        "cca2": "CR",
        "city": "San José",
        "iata": "SJO",
        "lat": 9.9938602448,
        "lon": -84.2088012695,
        "region": "South America"
    },
    {
        "cca2": "HR",
        "city": "Zagreb",
        "iata": "ZAG",
        "lat": 45.7429008484,
        "lon": 16.0687999725,
        "region": "Europe"
    },
    {
        "cca2": "CW",
        "city": "Willemstad",
        "iata": "CUR",
        "lat": 12.1888999939,
        "lon": -68.9598007202,
        "region": "South America"
    },
    {
        "cca2": "CY",
        "city": "Nicosia",
        "iata": "LCA",
        "lat": 34.8750991821,
        "lon": 33.6249008179,
        "region": "Europe"
    },
    {
        "cca2": "CZ",
        "city": "Prague",
        "iata": "PRG",
        "lat": 50.1007995605,
        "lon": 14.2600002289,
        "region": "Europe"
    },
    {
        "cca2": "DK",
        "city": "Copenhagen",
        "iata": "CPH",
        "lat": 55.6179008484,
        "lon": 12.6560001373,
        "region": "Europe"
    },
    {
        "cca2": "DJ",
        "city": "Djibouti",
        "iata": "JIB",
        "lat": 11.5473003387,
        "lon": 43.1595001221,
        "region": "Africa"
    },
    {
        "cca2": "EC",
        "city": "Guayaquil",
        "iata": "GYE",
        "lat": -2.1894,
        "lon": -79.8891,
        "region": "South America"
    },
    {
        "cca2": "EC",
        "city": "Quito",
        "iata": "UIO",
        "lat": -0.1291666667,
        "lon": -78.3575,
        "region": "South America"
    },
    {
        "cca2": "EE",
        "city": "Tallinn",
        "iata": "TLL",
        "lat": 59.4132995605,
        "lon": 24.8327999115,
        "region": "Europe"
    },
    {
        "cca2": "FI",
        "city": "Helsinki",
        "iata": "HEL",
        "lat": 60.317199707,
        "lon": 24.963300705,
        "region": "Europe"
    },
    {
        "cca2": "FR",
        "city": "Marseille",
        "iata": "MRS",
        "lat": 43.439271922,
        "lon": 5.2214241028,
        "region": "Europe"
    },
    {
        "cca2": "FR",
        "city": "Paris",
        "iata": "CDG",
        "lat": 49.0127983093,
        "lon": 2.5499999523,
        "region": "Europe"
    },
    {
        "cca2": "GE",
        "city": "Tbilisi",
        "iata": "TBS",
        "lat": 41.6692008972,
        "lon": 44.95470047,
        "region": "Europe"
    },
    {
        "cca2": "DE",
        "city": "Berlin",
        "iata": "TXL",
        "lat": 52.5597000122,
        "lon": 13.2876996994,
        "region": "Europe"
    },
    {
        "cca2": "DE",
        "city": "Düsseldorf",
        "iata": "DUS",
        "lat": 51.2895011902,
        "lon": 6.7667798996,
        "region": "Europe"
    },
    {
        "cca2": "DE",
        "city": "Frankfurt",
        "iata": "FRA",
        "lat": 50.0264015198,
        "lon": 8.543129921,
        "region": "Europe"
    },
    {
        "cca2": "DE",
        "city": "Hamburg",
        "iata": "HAM",
        "lat": 53.6304016113,
        "lon": 9.9882297516,
        "region": "Europe"
    },
    {
        "cca2": "DE",
        "city": "Munich",
        "iata": "MUC",
        "lat": 48.3538017273,
        "lon": 11.7861003876,
        "region": "Europe"
    },
    {
        "cca2": "GH",
        "city": "Accra",
        "iata": "ACC",
        "lat": 5.614818,
        "lon": -0.205874,
        "region": "Africa"
    },
    {
        "cca2": "GR",
        "city": "Athens",
        "iata": "ATH",
        "lat": 37.9364013672,
        "lon": 23.9444999695,
        "region": "Europe"
    },
    {
        "cca2": "GR",
        "city": "Thessaloniki",
        "iata": "SKG",
        "lat": 40.5196990967,
        "lon": 22.9708995819,
        "region": "Europe"
    },
    {
        "cca2": "GD",
        "city": "St. George's",
        "iata": "GND",
        "lat": 12.007116,
        "lon": -61.7882288,
        "region": "South America"
    },
    {
        "cca2": "GU",
        "city": "Hagatna",
        "iata": "GUM",
        "lat": 13.4834003448,
        "lon": 144.796005249,
        "region": "Asia Pacific"
    },
    {
        "cca2": "GT",
        "city": "Guatemala City",
        "iata": "GUA",
        "lat": 14.5832996368,
        "lon": -90.5274963379,
        "region": "North America"
    },
    {
        "cca2": "GY",
        "city": "Georgetown",
        "lat": 6.825648,
        "lon": -58.163756,
        "name": "Georgetown, Guyana",
        "region": "South America"
    },
    {
        "cca2": "HT",
        "city": "Port-au-Prince",
        "iata": "PAP",
        "lat": 18.5799999237,
        "lon": -72.2925033569,
        "region": "North America"
    },
    {
        "cca2": "HN",
        "city": "Tegucigalpa",
        "iata": "TGU",
        "lat": 14.0608,
        "lon": -87.2172,
        "region": "South America"
    },
    {
        "cca2": "HK",
        "city": "Hong Kong",
        "iata": "HKG",
        "lat": 22.3089008331,
        "lon": 113.915000916,
        "region": "Asia Pacific"
    },
    {
        "cca2": "HU",
        "city": "Budapest",
        "iata": "BUD",
        "lat": 47.4369010925,
        "lon": 19.2555999756,
        "region": "Europe"
    },
    {
        "cca2": "IS",
        "city": "Reykjavík",
        "iata": "KEF",
        "lat": 63.9850006104,
        "lon": -22.6056003571,
        "region": "Europe"
    },
    {
        "cca2": "IN",
        "city": "Ahmedabad",
        "iata": "AMD",
        "lat": 23.0225,
        "lon": 72.5714,
        "region": "Asia Pacific"
    },
    {
        "cca2": "IN",
        "city": "Bangalore",
        "iata": "BLR",
        "lat": 13.7835719,
        "lon": 76.6165937,
        "region": "Asia Pacific"
    },
    {
        "cca2": "IN",
        "city": "Bhubaneswar",
        "iata": "BBI",
        "lat": 20.2961,
        "lon": 85.8245,
        "region": "Asia Pacific"
    },
    {
        "cca2": "IN",
        "city": "Chandigarh",
        "iata": "IXC",
        "lat": 30.673500061,
        "lon": 76.7884979248,
        "region": "Asia Pacific"
    },
    {
        "cca2": "IN",
        "city": "Chennai",
        "iata": "MAA",
        "lat": 12.9900054932,
        "lon": 80.1692962646,
        "region": "Asia Pacific"
    },
    {
        "cca2": "IN",
        "city": "Hyderabad",
        "iata": "HYD",
        "lat": 17.2313175201,
        "lon": 78.4298553467,
        "region": "Asia Pacific"
    },
    {
        "cca2": "IN",
        "city": "Kanpur",
        "iata": "KNU",
        "lat": 26.4499,
        "lon": 80.3319,
        "region": "Asia Pacific"
    },
    {
        "cca2": "IN",
        "city": "Kolkata",
        "iata": "CCU",
        "lat": 22.6476933,
        "lon": 88.4349249,
        "region": "Asia Pacific"
    },
    {
        "cca2": "IN",
        "city": "Mumbai",
        "iata": "BOM",
        "lat": 19.0886993408,
        "lon": 72.8678970337,
        "region": "Asia Pacific"
    },
    {
        "cca2": "IN",
        "city": "Nagpur",
        "iata": "NAG",
        "lat": 21.1610714,
        "lon": 79.0024702,
        "region": "Asia Pacific"
    },
    {
        "cca2": "IN",
        "city": "New Delhi",
        "iata": "DEL",
        "lat": 28.5664997101,
        "lon": 77.1031036377,
        "region": "Asia Pacific"
    },
    {
        "cca2": "IN",
        "city": "Patna",
        "iata": "PAT",
        "lat": 25.591299057,
        "lon": 85.0879974365,
        "region": "Asia Pacific"
    },
    {
        "cca2": "ID",
        "city": "Jakarta",
        "iata": "CGK",
        "lat": -6.1275229,
        "lon": 106.6515118,
        "region": "Asia Pacific"
    },
    {
        "cca2": "ID",
        "city": "Yogyakarta",
        "iata": "JOG",
        "lat": -7.7881798744,
        "lon": 110.4319992065,
        "region": "Asia Pacific"
    },
    {
        "cca2": "IQ",
        "city": "Baghdad",
        "iata": "BGW",
        "lat": 33.2625007629,
        "lon": 44.2346000671,
        "region": "Middle East"
    },
    {
        "cca2": "IQ",
        "city": "Basra",
        "iata": "BSR",
        "lat": 30.5491008759,
        "lon": 47.6621017456,
        "region": "Middle East"
    },
    {
        "cca2": "IQ",
        "city": "Erbil",
        "iata": "EBL",
        "lat": 36.1901,
        "lon": 43.993,
        "region": "Middle East"
    },
    {
        "cca2": "IQ",
        "city": "Najaf",
        "iata": "NJF",
        "lat": 31.989722,
        "lon": 44.404167,
        "region": "Middle East"
    },
    {
        "cca2": "IQ",
        "city": "Nasiriyah",
        "iata": "XNH",
        "lat": 30.9358005524,
        "lon": 46.0900993347,
        "region": "Middle East"
    },
    {
        "cca2": "IE",
        "city": "Cork",
        "iata": "ORK",
        "lat": 51.8413009644,
        "lon": -8.491109848,
        "region": "Europe"
    },
    {
        "cca2": "IE",
        "city": "Dublin",
        "iata": "DUB",
        "lat": 53.4212989807,
        "lon": -6.270070076,
        "region": "Europe"
    },
    {
        "cca2": "IL",
        "city": "Haifa",
        "iata": "HFA",
        "lat": 32.78492,
        "lon": 34.96069,
        "region": "Middle East"
    },
    {
        "cca2": "IL",
        "city": "Tel Aviv",
        "iata": "TLV",
        "lat": 32.0113983154,
        "lon": 34.8866996765,
        "region": "Middle East"
    },
    {
        "cca2": "IT",
        "city": "Milan",
        "iata": "MXP",
        "lat": 45.6305999756,
        "lon": 8.7281103134,
        "region": "Europe"
    },
    {
        "cca2": "IT",
        "city": "Palermo",
        "iata": "PMO",
        "lat": 38.16114,
        "lon": 13.31546,
        "region": "Europe"
    },
    {
        "cca2": "IT",
        "city": "Rome",
        "iata": "FCO",
        "lat": 41.8045005798,
        "lon": 12.2508001328,
        "region": "Europe"
    },
    {
        "cca2": "JP",
        "city": "Naha",
        "lat": 26.1958,
        "lon": 127.646,
        "name": "Naha, Japan",
        "region": "Asia Pacific"
    },
    {
        "cca2": "JP",
        "city": "Osaka",
        "iata": "KIX",
        "lat": 34.4272994995,
        "lon": 135.244003296,
        "region": "Asia Pacific"
    },
    {
        "cca2": "JP",
        "city": "Tokyo",
        "iata": "NRT",
        "lat": 35.7647018433,
        "lon": 140.386001587,
        "region": "Asia Pacific"
    },
    {
        "cca2": "JO",
        "city": "Amman",
        "iata": "AMM",
        "lat": 31.7226009369,
        "lon": 35.9931983948,
        "region": "Middle East"
    },
    {
        "cca2": "KZ",
        "city": "Almaty",
        "iata": "ALA",
        "lat": 43.3521003723,
        "lon": 77.0404968262,
        "region": "Asia Pacific"
    },
    {
        "cca2": "KE",
        "city": "Mombasa",
        "iata": "MBA",
        "lat": -4.0348300934,
        "lon": 39.5942001343,
        "region": "Africa"
    },
    {
        "cca2": "KE",
        "city": "Nairobi",
        "iata": "NBO",
        "lat": -1.319239974,
        "lon": 36.9277992249,
        "region": "Africa"
    },
    {
        "cca2": "KR",
        "city": "Seoul",
        "iata": "ICN",
        "lat": 37.4691009521,
        "lon": 126.450996399,
        "region": "Asia Pacific"
    },
    {
        "cca2": "KW",
        "city": "Kuwait City",
        "iata": "KWI",
        "lat": 29.226600647,
        "lon": 47.9688987732,
        "region": "Middle East"
    },
    {
        "cca2": "LA",
        "city": "Vientiane",
        "iata": "VTE",
        "lat": 17.9757,
        "lon": 102.5683,
        "region": "Asia Pacific"
    },
    {
        "cca2": "LV",
        "city": "Riga",
        "iata": "RIX",
        "lat": 56.9235992432,
        "lon": 23.9710998535,
        "region": "Europe"
    },
    {
        "cca2": "LB",
        "city": "Beirut",
        "iata": "BEY",
        "lat": 33.8208999634,
        "lon": 35.4883995056,
        "region": "Middle East"
    },
    {
        "cca2": "LR",
        "city": "Monrovia",
        "iata": "ROB",
        "lat": 6.239127,
        "lon": -10.35462,
        "region": "Africa"
    },
    {
        "cca2": "LT",
        "city": "Vilnius",
        "iata": "VNO",
        "lat": 54.6341018677,
        "lon": 25.2858009338,
        "region": "Europe"
    },
    {
        "cca2": "LU",
        "city": "Luxembourg City",
        "iata": "LUX",
        "lat": 49.6265983582,
        "lon": 6.211520195,
        "region": "Europe"
    },
    {
        "cca2": "MO",
        "city": "Macau",
        "iata": "MFM",
        "lat": 22.1495990753,
        "lon": 113.592002869,
        "region": "Asia Pacific"
    },
    {
        "cca2": "MG",
        "city": "Antananarivo",
        "iata": "TNR",
        "lat": -18.91368,
        "lon": 47.53613,
        "region": "Africa"
    },
    {
        "cca2": "MY",
        "city": "Johor Bahru",
        "iata": "JHB",
        "lat": 1.635848,
        "lon": 103.665943,
        "region": "Asia Pacific"
    },
    {
        "cca2": "MY",
        "city": "Kuala Lumpur",
        "iata": "KUL",
        "lat": 2.745579958,
        "lon": 101.709999084,
        "region": "Asia Pacific"
    },
    {
        "cca2": "MV",
        "city": "Male",
        "iata": "MLE",
        "lat": 4.1748,
        "lon": 73.50888,
        "region": "Asia Pacific"
    },
    {
        "cca2": "MU",
        "city": "Port Louis",
        "iata": "MRU",
        "lat": -20.4302005768,
        "lon": 57.6836013794,
        "region": "Africa"
    },
    {
        "cca2": "MX",
        "city": "Mexico City",
        "iata": "MEX",
        "lat": 19.4363002777,
        "lon": -99.0720977783,
        "region": "North America"
    },
    {
        "cca2": "MX",
        "city": "Queretaro",
        "iata": "QRO",
        "lat": 20.6173000336,
        "lon": -100.185997009,
        "region": "North America"
    },
    {
        "cca2": "MD",
        "city": "Chișinău",
        "iata": "KIV",
        "lat": 46.9277000427,
        "lon": 28.9309997559,
        "region": "Europe"
    },
    {
        "cca2": "MN",
        "city": "Ulaanbaatar",
        "iata": "ULN",
        "lat": 47.8431015015,
        "lon": 106.766998291,
        "region": "Asia Pacific"
    },
    {
        "cca2": "MA",
        "city": "Casablanca",
        "iata": "CMN",
        "lat": 33.3675003052,
        "lon": -7.5899701118,
        "region": "Africa"
    },
    {
        "cca2": "MZ",
        "city": "Maputo",
        "iata": "MPM",
        "lat": -25.9207992554,
        "lon": 32.5726013184,
        "region": "Africa"
    },
    {
        "cca2": "MM",
        "city": "Mandalay",
        "lat": 39.2276,
        "lon": -74.63704,
        "name": "Mandalay, Myanmar (Burma)",
        "region": "Asia Pacific"
    },
    {
        "cca2": "MM",
        "city": "Yangon",
        "iata": "RGN",
        "lat": 16.9073009491,
        "lon": 96.1332015991,
        "region": "Asia Pacific"
    },
    {
        "cca2": "NP",
        "city": "Kathmandu",
        "iata": "KTM",
        "lat": 27.6965999603,
        "lon": 85.3591003418,
        "region": "Asia Pacific"
    },
    {
        "cca2": "NL",
        "city": "Amsterdam",
        "iata": "AMS",
        "lat": 52.3086013794,
        "lon": 4.7638897896,
        "region": "Europe"
    },
    {
        "cca2": "NC",
        "city": "Noumea",
        "iata": "NOU",
        "lat": -22.0146007538,
        "lon": 166.212997436,
        "region": "Oceania"
    },
    {
        "cca2": "NZ",
        "city": "Auckland",
        "iata": "AKL",
        "lat": -37.0080986023,
        "lon": 174.792007446,
        "region": "Oceania"
    },
    {
        "cca2": "NG",
        "city": "Lagos",
        "iata": "LOS",
        "lat": 6.5773701668,
        "lon": 3.321160078,
        "region": "Africa"
    },
    {
        "cca2": "NO",
        "city": "Oslo",
        "iata": "OSL",
        "lat": 60.193901062,
        "lon": 11.100399971,
        "region": "Europe"
    },
    {
        "cca2": "OM",
        "city": "Muscat",
        "iata": "MCT",
        "lat": 23.5932998657,
        "lon": 58.2844009399,
        "region": "Middle East"
    },
    {
        "cca2": "PK",
        "city": "Islamabad",
        "iata": "ISB",
        "lat": 33.6166992188,
        "lon": 73.0991973877,
        "region": "Asia Pacific"
    },
    {
        "cca2": "PK",
        "city": "Karachi",
        "iata": "KHI",
        "lat": 24.9064998627,
        "lon": 67.1607971191,
        "region": "Asia Pacific"
    },
    {
        "cca2": "PK",
        "city": "Lahore",
        "iata": "LHE",
        "lat": 31.5216007233,
        "lon": 74.4036026001,
        "region": "Asia Pacific"
    },
    {
        "cca2": "PS",
        "city": "Ramallah",
        "iata": "ZDM",
        "lat": 32.2719,
        "lon": 35.0194,
        "region": "Middle East"
    },
    {
        "cca2": "PA",
        "city": "Panama City",
        "iata": "PTY",
        "lat": 9.0713596344,
        "lon": -79.3834991455,
        "region": "South America"
    },
    {
        "cca2": "PY",
        "city": "Asunción",
        "iata": "ASU",
        "lat": -25.2399997711,
        "lon": -57.5200004578,
        "region": "South America"
    },
    {
        "cca2": "PE",
        "city": "Lima",
        "iata": "LIM",
        "lat": -12.021900177,
        "lon": -77.1143035889,
        "region": "South America"
    },
    {
        "cca2": "PH",
        "city": "Cagayan de Oro",
        "lat": 8.4156198502,
        "lon": 124.611000061,
        "name": "Cagayan de Oro, Philippines",
        "region": "Asia Pacific"
    },
    {
        "cca2": "PH",
        "city": "Cebu",
        "iata": "CEB",
        "lat": 10.3074998856,
        "lon": 123.978996277,
        "region": "Asia Pacific"
    },
    {
        "cca2": "PH",
        "city": "Manila",
        "iata": "MNL",
        "lat": 14.508600235,
        "lon": 121.019996643,
        "region": "Asia Pacific"
    },
    {
        "cca2": "PL",
        "city": "Warsaw",
        "iata": "WAW",
        "lat": 52.1656990051,
        "lon": 20.9671001434,
        "region": "Europe"
    },
    {
        "cca2": "PT",
        "city": "Lisbon",
        "iata": "LIS",
        "lat": 38.7812995911,
        "lon": -9.1359195709,
        "region": "Europe"
    },
    {
        "cca2": "QA",
        "city": "Doha",
        "iata": "DOH",
        "lat": 25.2605946,
        "lon": 51.6137665,
        "region": "Middle East"
    },
    {
        "cca2": "RE",
        "city": "Saint-Denis",
        "iata": "RUN",
        "lat": -20.8871002197,
        "lon": 55.5102996826,
        "region": "Africa"
    },
    {
        "cca2": "RO",
        "city": "Bucharest",
        "iata": "OTP",
        "lat": 44.5722007751,
        "lon": 26.1021995544,
        "region": "Europe"
    },
    {
        "cca2": "RU",
        "city": "Khabarovsk",
        "iata": "KHV",
        "lat": 48.5279998779,
        "lon": 135.18800354,
        "region": "Asia Pacific"
    },
    {
        "cca2": "RU",
        "city": "Krasnoyarsk",
        "iata": "KJA",
        "lat": 56.0153,
        "lon": 92.8932,
        "region": "Asia Pacific"
    },
    {
        "cca2": "RU",
        "city": "Moscow",
        "iata": "DME",
        "lat": 55.4087982178,
        "lon": 37.9062995911,
        "region": "Europe"
    },
    {
        "cca2": "RU",
        "city": "Saint Petersburg",
        "iata": "LED",
        "lat": 59.8003005981,
        "lon": 30.2625007629,
        "region": "Europe"
    },
    {
        "cca2": "RU",
        "city": "Yekaterinburg",
        "iata": "SVX",
        "lat": 56.8431,
        "lon": 60.6454,
        "region": "Asia Pacific"
    },
    {
        "cca2": "RW",
        "city": "Kigali",
        "iata": "KGL",
        "lat": -1.9686299563,
        "lon": 30.1394996643,
        "region": "Africa"
    },
    {
        "cca2": "SA",
        "city": "Dammam",
        "iata": "DMM",
        "lat": 26.471200943,
        "lon": 49.7979011536,
        "region": "Middle East"
    },
    {
        "cca2": "SA",
        "city": "Jeddah",
        "lat": 21.679599762,
        "lon": 39.15650177,
        "name": "Jeddah, Saudi Arabia",
        "region": "Middle East"
    },
    {
        "cca2": "SA",
        "city": "Riyadh",
        "iata": "RUH",
        "lat": 24.9575996399,
        "lon": 46.6987991333,
        "region": "Middle East"
    },
    {
        "cca2": "SN",
        "city": "Dakar",
        "iata": "DKR",
        "lat": 14.7412099,
        "lon": -17.4889771,
        "region": "Africa"
    },
    {
        "cca2": "RS",
        "city": "Belgrade",
        "iata": "BEG",
        "lat": 44.8184013367,
        "lon": 20.3090991974,
        "region": "Europe"
    },
    {
        "cca2": "SG",
        "city": "Singapore",
        "iata": "SIN",
        "lat": 1.3501900434,
        "lon": 103.994003296,
        "region": "Asia Pacific"
    },
    {
        "cca2": "SK",
        "city": "Bratislava",
        "lat": 17.1077,
        "lon": 48.1486,
        "name": "Bratislava, Slovakia",
        "region": "Europe"
    },
    {
        "cca2": "ZA",
        "city": "Cape Town",
        "iata": "CPT",
        "lat": -33.9648017883,
        "lon": 18.6016998291,
        "region": "Africa"
    },
    {
        "cca2": "ZA",
        "city": "Durban",
        "iata": "DUR",
        "lat": -29.6144444444,
        "lon": 31.1197222222,
        "region": "Africa"
    },
    {
        "cca2": "ZA",
        "city": "Johannesburg",
        "iata": "JNB",
        "lat": -26.133333,
        "lon": 28.25,
        "region": "Africa"
    },
    {
        "cca2": "ES",
        "city": "Barcelona",
        "iata": "BCN",
        "lat": 41.2971000671,
        "lon": 2.0784599781,
        "region": "Europe"
    },
    {
        "cca2": "ES",
        "city": "Madrid",
        "iata": "MAD",
        "lat": 40.4936,
        "lon": -3.56676,
        "region": "Europe"
    },
    {
        "cca2": "LK",
        "city": "Colombo",
        "iata": "CMB",
        "lat": 7.1807599068,
        "lon": 79.8841018677,
        "region": "Asia Pacific"
    },
    {
        "cca2": "SR",
        "city": "Paramaribo",
        "iata": "PBM",
        "lat": 5.452831,
        "lon": -55.187783,
        "region": "South America"
    },
    {
        "cca2": "SE",
        "city": "Gothenburg",
        "iata": "GOT",
        "lat": 57.6627998352,
        "lon": 12.279800415,
        "region": "Europe"
    },
    {
        "cca2": "SE",
        "city": "Stockholm",
        "iata": "ARN",
        "lat": 59.6519012451,
        "lon": 17.9186000824,
        "region": "Europe"
    },
    {
        "cca2": "CH",
        "city": "Geneva",
        "iata": "GVA",
        "lat": 46.2380981445,
        "lon": 6.1089501381,
        "region": "Europe"
    },
    {
        "cca2": "CH",
        "city": "Zurich",
        "iata": "ZRH",
        "lat": 47.4646987915,
        "lon": 8.5491695404,
        "region": "Europe"
    },
    {
        "cca2": "TW",
        "city": "Taipei",
        "iata": "TPE",
        "lat": 25.0776996613,
        "lon": 121.233001709,
        "region": "Asia Pacific"
    },
    {
        "cca2": "TZ",
        "city": "Dar es Salaam",
        "iata": "DAR",
        "lat": -6.8781099319,
        "lon": 39.2025985718,
        "region": "Africa"
    },
    {
        "cca2": "TH",
        "city": "Bangkok",
        "iata": "BKK",
        "lat": 13.6810998917,
        "lon": 100.747001648,
        "region": "Asia Pacific"
    },
    {
        "cca2": "TH",
        "city": "Chiang Mai",
        "iata": "CNX",
        "lat": 18.7667999268,
        "lon": 98.962600708,
        "region": "Asia Pacific"
    },
    {
        "cca2": "TH",
        "city": "Surat Thani",
        "iata": "URT",
        "lat": 9.1325998306,
        "lon": 99.135597229,
        "region": "Asia Pacific"
    },
    {
        "cca2": "TN",
        "city": "Tunis",
        "iata": "TUN",
        "lat": 36.8510017395,
        "lon": 10.2271995544,
        "region": "Africa"
    },
    {
        "cca2": "TR",
        "city": "Istanbul",
        "iata": "IST",
        "lat": 40.9768981934,
        "lon": 28.8145999908,
        "region": "Europe"
    },
    {
        "cca2": "UA",
        "city": "Kyiv",
        "iata": "KBP",
        "lat": 50.3450012207,
        "lon": 30.8946990967,
        "region": "Europe"
    },
    {
        "cca2": "AE",
        "city": "Dubai",
        "iata": "DXB",
        "lat": 25.2527999878,
        "lon": 55.3643989563,
        "region": "Middle East"
    },
    {
        "cca2": "GB",
        "city": "Edinburgh",
        "iata": "EDI",
        "lat": 55.9500007629,
        "lon": -3.3724999428,
        "region": "Europe"
    },
    {
        "cca2": "GB",
        "city": "London",
        "iata": "LHR",
        "lat": 51.4706001282,
        "lon": -0.4619410038,
        "region": "Europe"
    },
    {
        "cca2": "GB",
        "city": "Manchester",
        "iata": "MAN",
        "lat": 53.3536987305,
        "lon": -2.2749500275,
        "region": "Europe"
    },
    {
        "cca2": "US",
        "city": "Montgomery",
        "iata": "MGM",
        "lat": 32.30059814,
        "lon": -86.39399719,
        "region": "North America"
    },
    {
        "cca2": "US",
        "city": "Phoenix",
        "iata": "PHX",
        "lat": 33.434299469,
        "lon": -112.012001038,
        "region": "North America"
    },
    {
        "cca2": "US",
        "city": "Los Angeles",
        "iata": "LAX",
        "lat": 33.94250107,
        "lon": -118.4079971,
        "region": "North America"
    },
    {
        "cca2": "US",
        "city": "Sacramento",
        "iata": "SMF",
        "lat": 38.695400238,
        "lon": -121.591003418,
        "region": "North America"
    },
    {
        "cca2": "US",
        "city": "San Diego",
        "iata": "SAN",
        "lat": 32.7336006165,
        "lon": -117.190002441,
        "region": "North America"
    },
    {
        "cca2": "US",
        "city": "San Francisco",
        "lat": 37.6189994812,
        "lon": -122.375,
        "name": "San Francisco, United States",
        "region": "North America"
    },
    {
        "cca2": "US",
        "city": "San Jose",
        "iata": "SJC",
        "lat": 37.3625984192,
        "lon": -121.929000855,
        "region": "North America"
    },
    {
        "cca2": "US",
        "city": "Denver",
        "iata": "DEN",
        "lat": 39.8616981506,
        "lon": -104.672996521,
        "region": "North America"
    },
    {
        "cca2": "US",
        "city": "Jacksonville",
        "iata": "JAX",
        "lat": 30.4941005707,
        "lon": -81.6878967285,
        "region": "North America"
    },
    {
        "cca2": "US",
        "city": "Miami",
        "iata": "MIA",
        "lat": 25.7931995392,
        "lon": -80.2906036377,
        "region": "North America"
    },
    {
        "cca2": "US",
        "city": "Tallahassee",
        "iata": "TLH",
        "lat": 30.3964996338,
        "lon": -84.3503036499,
        "region": "North America"
    },
    {
        "cca2": "US",
        "city": "Tampa",
        "iata": "TPA",
        "lat": 27.9755001068,
        "lon": -82.533203125,
        "region": "North America"
    },
    {
        "cca2": "US",
        "city": "Atlanta",
        "iata": "ATL",
        "lat": 33.6366996765,
        "lon": -84.4281005859,
        "region": "North America"
    },
    {
        "cca2": "US",
        "city": "Honolulu",
        "iata": "HNL",
        "lat": 21.3187007904,
        "lon": -157.9219970703,
        "region": "North America"
    },
    {
        "cca2": "US",
        "city": "Chicago",
        "iata": "ORD",
        "lat": 41.97859955,
        "lon": -87.90480042,
        "region": "North America"
    },
    {
        "cca2": "US",
        "city": "Indianapolis",
        "iata": "IND",
        "lat": 39.717300415,
        "lon": -86.2944030762,
        "region": "North America"
    },
    {
        "cca2": "US",
        "city": "Boston",
        "iata": "BOS",
        "lat": 42.36429977,
        "lon": -71.00520325,
        "region": "North America"
    },
    {
        "cca2": "US",
        "city": "Detroit",
        "iata": "DTW",
        "lat": 42.2123985291,
        "lon": -83.3534011841,
        "region": "North America"
    },
    {
        "cca2": "US",
        "city": "Minneapolis",
        "iata": "MSP",
        "lat": 44.8819999695,
        "lon": -93.2218017578,
        "region": "North America"
    },
    {
        "cca2": "US",
        "city": "Kansas City",
        "iata": "MCI",
        "lat": 39.2975997925,
        "lon": -94.7138977051,
        "region": "North America"
    },
    {
        "cca2": "US",
        "city": "St. Louis",
        "iata": "STL",
        "lat": 38.7486991882,
        "lon": -90.3700027466,
        "region": "North America"
    },
    {
        "cca2": "US",
        "city": "Omaha",
        "iata": "OMA",
        "lat": 41.3031997681,
        "lon": -95.8940963745,
        "region": "North America"
    },
    {
        "cca2": "US",
        "city": "Las Vegas",
        "iata": "LAS",
        "lat": 36.08010101,
        "lon": -115.1520004,
        "region": "North America"
    },
    {
        "cca2": "US",
        "city": "Newark",
        "iata": "EWR",
        "lat": 40.6925010681,
        "lon": -74.1687011719,
        "region": "North America"
    },
    {
        "cca2": "US",
        "city": "Buffalo",
        "iata": "BUF",
        "lat": 42.94049835,
        "lon": -78.73220062,
        "region": "North America"
    },
    {
        "cca2": "US",
        "city": "Charlotte",
        "iata": "CLT",
        "lat": 35.2140007019,
        "lon": -80.9430999756,
        "region": "North America"
    },
    {
        "cca2": "US",
        "city": "Columbus",
        "iata": "CMH",
        "lat": 39.9980010986,
        "lon": -82.8918991089,
        "region": "North America"
    },
    {
        "cca2": "US",
        "city": "Portland",
        "iata": "PDX",
        "lat": 45.58869934,
        "lon": -122.5979996,
        "region": "North America"
    },
    {
        "cca2": "US",
        "city": "Philadelphia",
        "iata": "PHL",
        "lat": 39.8718986511,
        "lon": -75.2410964966,
        "region": "North America"
    },
    {
        "cca2": "US",
        "city": "Pittsburgh",
        "iata": "PIT",
        "lat": 40.49150085,
        "lon": -80.23290253,
        "region": "North America"
    },
    {
        "cca2": "US",
        "city": "Memphis",
        "iata": "MEM",
        "lat": 35.0424003601,
        "lon": -89.9766998291,
        "region": "North America"
    },
    {
        "cca2": "US",
        "city": "Dallas",
        "iata": "DFW",
        "lat": 32.8968009949,
        "lon": -97.0380020142,
        "region": "North America"
    },
    {
        "cca2": "US",
        "city": "Houston",
        "iata": "IAH",
        "lat": 29.9843997955,
        "lon": -95.3414001465,
        "region": "North America"
    },
    {
        "cca2": "US",
        "city": "McAllen",
        "iata": "MFE",
        "lat": 26.17580032,
        "lon": -98.23860168,
        "region": "North America"
    },
    {
        "cca2": "US",
        "city": "Salt Lake City",
        "iata": "SLC",
        "lat": 40.7883987427,
        "lon": -111.977996826,
        "region": "North America"
    },
    {
        "cca2": "US",
        "city": "Ashburn",
        "iata": "IAD",
        "lat": 38.94449997,
        "lon": -77.45580292,
        "region": "North America"
    },
    {
        "cca2": "US",
        "city": "Norfolk",
        "iata": "ORF",
        "lat": 36.8945999146,
        "lon": -76.2012023926,
        "region": "North America"
    },
    {
        "cca2": "US",
        "city": "Richmond",
        "iata": "RIC",
        "lat": 37.5051994324,
        "lon": -77.3197021484,
        "region": "North America"
    },
    {
        "cca2": "US",
        "city": "Seattle",
        "iata": "SEA",
        "lat": 47.4490013123,
        "lon": -122.308998108,
        "region": "North America"
    },
    {
        "cca2": "UZ",
        "city": "Tashkent",
        "iata": "TAS",
        "lat": 41.257900238,
        "lon": 69.2811965942,
        "region": "Asia Pacific"
    },
    {
        "cca2": "VN",
        "city": "Hanoi",
        "iata": "HAN",
        "lat": 21.221200943,
        "lon": 105.806999206,
        "region": "Asia Pacific"
    },
    {
        "cca2": "VN",
        "city": "Ho Chi Minh City",
        "iata": "SGN",
        "lat": 10.8187999725,
        "lon": 106.652000427,
        "region": "Asia Pacific"
    },
    {
        "cca2": "ZW",
        "city": "Harare",
        "iata": "HRE",
        "lat": -17.9318008423,
        "lon": 31.0928001404,
        "region": "Africa"
    }
]